City_ID,City,Lat,Lng,Max Temp,Humidity,Cloudiness,Wind Speed,Country,Date
0,den burg,53.0542,4.7972,17.2,97,100,10.8,NL,1690102877
1,port-aux-francais,-49.35,70.2167,5.73,86,99,16.4,TF,1690102518
2,adamstown,-25.066,-130.1015,21.25,67,0,8.66,PN,1690102515
3,blackmans bay,-43.0167,147.3167,9.74,81,70,2.69,AU,1690102515
4,la ronge,55.1001,-105.2842,11.14,93,0,0.0,CA,1690102547
5,edinburgh of the seven seas,-37.0676,-12.3116,13.37,78,40,9.63,SH,1690102512
6,grytviken,-54.2811,-36.5092,-5.36,76,35,4.99,GS,1690102512
7,srivardhan,18.0333,73.0167,26.58,89,100,8.4,IN,1690102882
8,puerto ayora,-0.7393,-90.3518,24.42,79,55,4.79,EC,1690102519
9,santana,-0.0583,-51.1817,28.1,83,75,5.14,BR,1690102883
10,bethel,41.3712,-73.414,18.75,86,0,1.54,US,1690102513
11,malpica,43.3228,-8.8105,20.76,80,100,4.68,ES,1690102884
12,clarksdale,34.2001,-90.5709,19.99,100,0,0.0,US,1690102885
13,the bottom,17.6259,-63.2492,26.31,76,94,6.77,BQ,1690102886
14,viqueque,-8.8673,126.3658,24.86,73,72,2.99,TL,1690102886
15,colchani,-20.3,-66.9333,1.3,31,0,0.72,BO,1690102887
16,darnah,32.767,22.6367,32.99,42,0,7.69,LY,1690102887
17,yellowknife,62.456,-114.3525,14.29,77,100,2.06,CA,1690102311
18,iqaluit,63.7506,-68.5145,5.85,86,75,0.0,CA,1690102516
19,beboto,8.2668,16.939,28.44,63,99,1.6,TD,1690102889
20,olonkinbyen,70.9221,-8.7187,4.93,84,100,3.55,SJ,1690102537
21,cherdyn',60.403,56.4787,22.62,41,3,3.23,RU,1690102890
22,tolanaro,-25.0319,46.9987,25.04,65,20,9.26,MG,1690102514
23,chonchi,-42.6128,-73.8092,0.56,88,47,0.25,CL,1690102585
24,bredasdorp,-34.5322,20.0403,12.92,69,100,4.66,ZA,1690102517
25,west island,-12.1568,96.8225,26.99,74,100,4.63,CC,1690102514
26,albany,42.6001,-73.9662,15.85,89,5,0.89,US,1690102254
27,vila velha,-20.3297,-40.2925,19.97,99,75,2.06,BR,1690102844
28,antofagasta,-23.65,-70.4,16.6,83,48,1.35,CL,1690102564
29,wailua homesteads,22.0669,-159.378,26.44,86,100,6.69,US,1690102523
30,kayangel,8.0823,134.7173,25.53,86,100,3.25,PW,1690102896
31,weno,7.4515,151.8468,24.97,88,100,0.0,FM,1690102545
32,waitangi,-43.9535,-176.5597,11.57,95,20,4.02,NZ,1690102520
33,belyy yar,53.6039,91.3903,20.94,64,40,4.0,RU,1690102572
34,afaahiti,-17.75,-149.2833,21.93,67,92,5.08,PF,1690102530
35,invercargill,-46.4,168.35,8.95,94,100,3.4,NZ,1690102899
36,bilibino,68.0546,166.4372,24.98,44,71,3.55,RU,1690102520
37,tamanrasset,22.785,5.5228,33.95,11,0,1.54,DZ,1690102518
38,longyearbyen,78.2186,15.6401,9.91,71,40,2.06,SJ,1690102527
39,fort-shevchenko,44.5086,50.263,30.63,49,7,4.86,KZ,1690102901
40,uturoa,-16.7333,-151.4333,24.66,77,98,6.91,PF,1690102580
41,puerto natales,-51.7236,-72.4875,-4.02,92,14,1.52,CL,1690102515
42,klyuchi,52.2667,79.1667,29.67,24,61,5.25,RU,1690102524
43,selfoss,63.9331,-20.9971,13.36,76,100,1.19,IS,1690102560
44,labrador city,52.9463,-66.9114,15.95,94,100,1.54,CA,1690102557
45,remire-montjoly,4.9167,-52.2667,23.02,94,0,0.0,GF,1690102905
46,praia,14.9215,-23.5087,26.3,69,75,6.17,CV,1690102577
47,sarupathar,26.1984,93.8094,31.12,69,91,1.01,IN,1690102906
48,pula,44.8683,13.8481,28.31,57,20,3.6,HR,1690102906
49,harstad,68.799,16.5293,15.13,97,100,0.89,NO,1690102907
50,papatowai,-46.5619,169.4708,8.92,97,100,2.98,NZ,1690102514
51,colonia menno,-22.3667,-59.8167,21.97,37,0,4.38,PY,1690102909
52,ilhabela,-23.7781,-45.3581,17.34,70,0,2.52,BR,1690102852
53,ilulissat,69.2167,-51.1,8.01,87,75,2.06,GL,1690102535
54,morigaon,26.3796,92.3415,31.83,69,91,1.55,IN,1690102911
55,medina,24.4686,39.6142,40.24,7,0,3.6,SA,1690102911
56,qaqortoq,60.7167,-46.0333,12.32,72,100,2.1,GL,1690102531
57,carbonear,47.7332,-53.2148,19.3,96,99,2.7,CA,1690102514
58,petropavlovsk-kamchatsky,53.0452,158.6483,21.33,68,0,4.0,RU,1690102517
59,kavaratti,10.5669,72.642,28.3,80,99,9.07,IN,1690102914
60,ushuaia,-54.8,-68.3,-0.19,74,0,7.2,AR,1690102513
61,cotoca,-17.8167,-63.05,21.92,58,0,6.38,BO,1690102916
62,puerto santa,-8.9906,-78.6456,19.97,82,48,2.44,PE,1690102916
63,tanjung pandan,-2.75,107.65,28.34,73,73,3.27,ID,1690102917
64,fisterra,42.9049,-9.2629,18.75,85,100,3.96,ES,1690102519
65,brookings,44.3114,-96.7984,17.43,100,1,0.7,US,1690102918
66,whitehorse,60.7161,-135.0538,14.43,90,100,1.54,CA,1690102525
67,verkhnevilyuysk,63.4453,120.3167,29.79,38,7,2.17,RU,1690102919
68,ndjole,-0.1783,10.7649,26.61,65,98,0.84,GA,1690102920
69,galdar,28.147,-15.6502,24.64,73,56,7.5,ES,1690102921
70,san patricio,28.017,-97.5169,28.81,86,0,3.0,US,1690102515
71,kerema,-7.9631,145.7785,24.82,82,100,4.99,PG,1690102922
72,punta arenas,-53.15,-70.9167,-0.92,81,12,4.81,CL,1690102517
73,jamestown,42.097,-79.2353,17.06,99,0,2.06,US,1690102527
74,alesund,62.4723,6.1549,17.73,73,40,4.12,NO,1690102588
75,nangong,37.3581,115.3744,36.31,33,0,1.39,CN,1690102924
76,burabay,53.0838,70.3138,19.09,67,100,2.59,KZ,1690102925
77,avarua,-21.2078,-159.775,23.03,94,100,8.75,CK,1690102519
78,ramhormoz,31.28,49.6035,46.13,6,22,4.78,IR,1690102926
79,eyl,7.9803,49.8164,32.78,43,94,14.06,SO,1690102927
80,taoudenni,22.6783,-3.9836,39.49,22,76,3.09,ML,1690102555
81,saipan,15.1355,145.701,28.14,100,100,1.54,MP,1690102516
82,nova sintra,14.8667,-24.7167,22.37,73,56,6.01,CV,1690102515
83,colonia,50.9333,6.95,19.68,72,100,4.12,DE,1690102543
84,hithadhoo,-0.6,73.0833,28.52,75,21,3.51,MV,1690102536
85,khorixas,-20.3667,14.9667,26.4,24,0,5.91,NA,1690102931
86,bokoro,12.3807,17.0568,28.44,61,100,5.26,TD,1690102932
87,dunedin,-45.8742,170.5036,9.33,94,100,0.45,NZ,1690102546
88,margaret river,-33.95,115.0667,15.15,69,0,5.31,AU,1690102514
89,stanley,54.868,-1.6985,14.6,94,75,6.17,GB,1690102524
90,ostersund,63.1792,14.6357,12.25,35,100,5.66,SE,1690102934
91,buala,-8.145,159.5921,25.85,88,98,2.17,SB,1690102935
92,port elizabeth,-33.918,25.5701,16.16,59,0,6.17,ZA,1690102520
93,tukrah,32.5341,20.5791,33.86,38,0,4.52,LY,1690102936
94,beyneu,45.3167,55.2,37.16,20,0,2.69,KZ,1690102937
95,cam ranh,11.9214,109.1591,26.98,94,75,2.06,VN,1690102937
96,mount pearl,47.5166,-52.7813,18.58,96,100,1.54,CA,1690102313
97,kanel,15.4916,-13.1763,29.0,84,40,1.03,SN,1690102939
98,nuuk,64.1835,-51.7216,7.34,100,100,1.54,GL,1690102534
99,vorgashor,67.5833,63.95,17.06,93,100,2.74,RU,1690102523
100,rongelap,11.1635,166.8941,28.59,73,17,8.07,MH,1690102516
101,coquimbo,-29.9533,-71.3436,12.85,87,0,5.66,CL,1690102397
102,greymouth,-42.4667,171.2,7.77,88,100,2.15,NZ,1690102873
103,fale old settlement,-9.3852,-171.2468,28.85,73,8,4.85,TK,1690102526
104,inongo,-1.95,18.2667,25.52,60,97,0.52,CD,1690102939
105,es castell,39.8795,4.2854,29.38,58,20,5.66,ES,1690102945
106,sitka,57.0531,-135.33,13.94,94,100,3.6,US,1690102529
107,san antonio de pale,-1.4014,5.6325,23.13,77,100,4.89,GQ,1690102517
108,ipameri,-17.7219,-48.1597,15.43,62,0,2.89,BR,1690102947
109,cestos city,5.46,-9.5828,26.46,76,100,3.75,LR,1690102947
110,mejit,10.2753,170.8646,28.4,73,9,7.72,MH,1690102512
111,hermanus,-34.4187,19.2345,11.56,61,100,4.27,ZA,1690102542
112,kapa'a,22.0752,-159.319,27.18,86,100,6.69,US,1690102560
113,vadso,70.0744,29.7487,10.09,87,75,8.75,NO,1690102562
114,berezovyy,51.6667,135.7,28.12,38,100,3.07,RU,1690102950
115,atafu village,-8.5421,-172.5159,28.77,75,14,5.02,TK,1690102532
116,kodiak,57.79,-152.4072,10.73,87,0,2.57,US,1690102527
117,as sulayyil,20.4607,45.5779,42.14,6,33,3.89,SA,1690102952
118,aroma,15.8167,36.1333,35.12,34,50,9.26,SD,1690102953
119,iskateley,67.6803,53.1512,18.89,80,100,1.23,RU,1690102518
120,rio grande,-32.035,-52.0986,21.08,76,44,6.04,BR,1690102954
121,tralee,52.2704,-9.7026,16.14,94,100,5.14,IE,1690102533
122,crane,31.3974,-102.3501,27.1,44,74,5.43,US,1690102955
123,mount gambier,-37.8333,140.7667,9.63,87,100,1.68,AU,1690102956
124,gornopravdinsk,60.05,69.9,24.95,50,74,2.05,RU,1690102956
125,la'ie,21.6477,-157.9253,26.98,85,34,6.34,US,1690102957
126,burutu,5.3509,5.5076,24.48,91,100,2.97,NG,1690102958
127,tiksi,71.6872,128.8694,6.73,75,70,1.97,RU,1690102532
128,badger,64.8,-147.5333,19.93,82,0,1.54,US,1690102529
129,isafjordur,66.0755,-23.124,10.02,93,100,2.57,IS,1690102511
130,sassandra,4.95,-6.0833,24.05,92,100,1.91,CI,1690102961
131,kokkola,63.8385,23.1307,16.09,82,75,2.57,FI,1690102962
132,fort st. john,56.2499,-120.8529,11.94,94,75,4.12,CA,1690102459
133,golfito,8.639,-83.166,24.07,92,100,0.35,CR,1690102963
134,sweetwater,25.7634,-80.3731,28.89,91,0,2.57,US,1690102554
135,aktau,43.65,51.2,36.32,35,5,2.72,KZ,1690102964
136,arraial do cabo,-22.9661,-42.0278,20.84,87,1,9.36,BR,1690102548
137,lata,40.1629,-8.3327,20.04,59,52,2.22,PT,1690102556
138,saint-francois,46.4154,3.9054,22.69,56,0,2.06,FR,1690102569
139,utrik,11.2278,169.8474,28.32,73,39,7.72,MH,1690102525
140,port blair,11.6667,92.75,27.02,89,75,2.57,IN,1690102967
141,hawaiian paradise park,19.5933,-154.9731,23.91,97,100,2.06,US,1690102534
142,georgetown,5.4112,100.3354,31.97,82,20,5.14,MY,1690102536
143,ribeira grande,38.5167,-28.7,22.22,83,40,1.54,PT,1690102525
144,port mathurin,-19.6833,63.4167,23.28,67,6,7.86,MU,1690102519
145,aasiaat,68.7098,-52.8699,3.77,99,100,3.64,GL,1690102562
146,lago da pedra,-4.3333,-45.1667,19.31,69,41,1.51,BR,1690102971
147,tofol,5.3248,163.0078,28.91,77,20,6.11,FM,1690102972
148,kambove,-10.8764,26.5969,23.55,36,1,4.61,CD,1690102972
149,korla,41.7597,86.1469,36.5,16,99,5.54,CN,1690102555
150,azul,-36.777,-59.8585,5.91,93,0,3.57,AR,1690102974
151,el bayadh,33.6832,1.0193,32.31,11,0,7.3,DZ,1690102974
152,carnarvon,-24.8667,113.6333,23.57,28,0,3.57,AU,1690102524
153,margate,51.3813,1.3862,20.39,74,82,6.26,GB,1690102975
154,port alfred,-33.5906,26.891,17.32,70,12,2.24,ZA,1690102513
155,sungai raya,0.7,108.9,29.77,72,93,4.93,ID,1690102977
156,quellon,-43.1167,-73.6167,0.14,100,20,0.0,CL,1690102531
157,iquique,-20.2208,-70.1431,18.02,79,64,0.54,CL,1690102946
158,tsiombe,-25.3,45.4833,27.47,43,0,1.09,MG,1690102980
159,talnakh,69.4865,88.3972,22.49,63,58,1.56,RU,1690102552
160,ondjiva,-17.0667,15.7333,26.18,24,3,4.62,AO,1690102984
161,lihue,21.9789,-159.3672,26.77,85,100,6.69,US,1690102524
162,ulsteinvik,62.3432,5.8487,17.5,75,89,0.89,NO,1690102986
163,port lincoln,-34.7333,135.8667,12.59,71,100,4.0,AU,1690102525
164,newman,37.3138,-121.0208,27.99,71,84,1.93,US,1690102559
165,marquette,46.5333,-87.6335,14.09,94,14,0.89,US,1690102988
166,mazamari,-11.3258,-74.5308,21.97,74,88,0.7,PE,1690102989
167,howrah,22.5892,88.3103,32.0,79,75,3.09,IN,1690102526
168,la passe,45.5549,-0.8967,22.13,66,100,4.99,FR,1690102530
169,elk city,35.412,-99.4043,20.12,88,0,4.12,US,1690102832
170,karkira,36.9292,6.5856,39.59,26,0,2.17,DZ,1690102991
171,maumere,-8.6199,122.2111,26.35,65,74,0.51,ID,1690102992
172,tateyama,34.9833,139.8667,25.25,77,76,3.19,JP,1690102993
173,vrangel',42.7297,133.0839,19.47,99,100,4.26,RU,1690102994
174,anadyr,64.75,177.4833,12.28,87,40,4.0,RU,1690102529
175,khorugh,37.4897,71.553,29.53,13,0,2.87,TJ,1690102702
176,ebon,4.582,168.6964,28.71,78,100,8.09,MH,1690102995
177,seminole,28.7086,-81.2081,25.79,91,0,2.06,US,1690102994
178,oranjemund,-28.55,16.4333,13.37,48,100,3.21,NA,1690102532
179,derzhavinsk,51.1,66.3167,28.72,32,0,8.39,KZ,1690102570
180,valparaiso,-33.0393,-71.6273,10.8,81,0,2.06,CL,1690102770
181,fort bragg,35.139,-79.006,21.75,96,0,0.0,US,1690102998
182,manacapuru,-3.2997,-60.6206,24.67,60,100,1.96,BR,1690102825
183,tazovsky,67.4667,78.7,18.83,69,100,1.72,RU,1690102547
184,tura,25.5198,90.2201,30.24,75,95,1.43,IN,1690102521
185,oodweyne,9.4092,45.064,28.32,42,100,12.43,SO,1690103001
186,vershino-darasunskiy,52.35,115.5167,19.57,50,100,1.95,RU,1690103002
187,catriel,-37.8791,-67.7956,7.87,56,65,6.76,AR,1690103002
188,polyarnyy,69.1989,33.4478,11.02,73,94,7.3,RU,1690102542
189,port arthur,38.8,121.2667,29.12,82,0,2.01,CN,1690103004
190,howard springs,-12.497,131.047,26.95,26,61,4.01,AU,1690103004
191,udachny,66.4167,112.4,30.25,26,61,7.01,RU,1690102512
192,kodinsk,58.6881,99.1844,32.16,24,65,1.13,RU,1690103006
193,hammerfest,70.6634,23.6821,14.25,58,0,3.09,NO,1690102541
194,yung shue wan,22.2333,114.1167,32.67,71,100,3.67,HK,1690103007
195,oamaru,-45.0784,170.9801,9.65,96,100,4.58,NZ,1690102542
196,mabaruma,8.2,-59.7833,22.23,99,95,0.69,GY,1690103008
197,bani mazar,28.5036,30.8004,38.72,20,0,6.2,EG,1690102998
198,vilyuchinsk,52.9306,158.4028,22.15,83,97,4.55,RU,1690102558
199,pisco,-13.7,-76.2167,20.03,73,100,0.0,PE,1690102563
200,luderitz,-26.6481,15.1594,14.98,44,94,4.08,NA,1690102535
201,niquelandia,-14.4739,-48.4597,17.3,61,0,1.99,BR,1690103011
202,mazar-e sharif,36.709,67.1109,40.55,11,0,5.41,AF,1690103012
203,emerald,-23.5333,148.1667,14.08,45,95,6.58,AU,1690103013
204,okhotsk,59.3833,143.3,16.5,78,25,4.97,RU,1690102521
205,mhamid,29.82,-5.72,39.71,7,0,5.0,MA,1690103014
206,pontes e lacerda,-15.2261,-59.3353,16.76,58,0,0.78,BR,1690102945
207,namibe,-15.1961,12.1522,23.25,54,64,4.46,AO,1690102534
208,kristiansund,63.1115,7.732,17.03,72,100,2.06,NO,1690102990
209,antsiranana,-12.2787,49.2917,28.42,44,40,8.23,MG,1690102548
210,constantia,44.1833,28.65,24.38,64,28,6.24,RO,1690102528
211,karratha,-20.7377,116.8463,23.78,24,0,7.48,AU,1690102487
212,baruun-urt,46.6806,113.2792,24.4,34,9,4.9,MN,1690103018
213,sampit,-2.5333,112.95,28.98,71,54,2.27,ID,1690103018
214,kone,-21.0595,164.8658,17.2,64,1,1.25,NC,1690103019
215,kokpekty,48.75,82.4,32.17,13,74,3.78,KZ,1690103019
216,bamboo flat,11.7,92.7167,27.05,89,75,2.57,IN,1690102559
217,pudozh,61.8099,36.5345,13.81,92,100,3.61,RU,1690103021
218,tonala,20.6167,-103.2333,16.78,93,100,0.84,MX,1690102561
219,thompson,55.7435,-97.8558,11.09,82,75,1.54,CA,1690102517
220,gizo,-8.103,156.8419,26.04,80,100,5.94,SB,1690103023
221,al muwayh,22.4333,41.7583,40.42,8,90,4.2,SA,1690103023
222,hasaki,35.7333,140.8333,28.5,75,52,3.77,JP,1690102539
223,kailua-kona,19.6406,-155.9956,26.98,85,40,3.6,US,1690102470
224,pagar alam,-4.0167,103.2667,24.45,93,78,0.23,ID,1690103025
225,zeralda,36.7117,2.8424,39.94,56,12,0.29,DZ,1690103026
226,rundu,-17.9333,19.7667,25.87,22,0,4.73,NA,1690103026
227,correntina,-13.3433,-44.6367,17.11,80,41,2.15,BR,1690103027
228,port macquarie,-31.4333,152.9167,12.16,79,7,4.04,AU,1690103027
229,dobrinka,52.1653,40.4731,19.27,65,100,2.34,RU,1690103028
230,byron bay,-28.65,153.6167,15.78,76,92,5.22,AU,1690102951
231,janauba,-15.8025,-43.3089,16.63,89,0,2.16,BR,1690103030
232,inderbor,48.55,51.7833,30.96,28,0,3.12,KZ,1690102567
233,znamenskoye,57.1281,73.8282,25.84,47,77,2.59,RU,1690103031
234,chambas,22.1928,-78.9136,23.07,95,53,1.28,CU,1690103031
235,butia,-30.1197,-51.9622,15.94,90,78,1.25,BR,1690103032
236,basco,20.4487,121.9702,29.23,79,25,6.71,PH,1690103033
237,lompoc,34.6391,-120.4579,13.85,100,100,1.54,US,1690102315
238,kavieng,-2.5744,150.7967,27.69,78,100,3.03,PG,1690102564
239,soio,-6.1349,12.3689,24.04,71,35,3.41,AO,1690102528
240,mana,5.6592,-53.7767,23.28,91,23,3.26,GF,1690102985
241,scottburgh,-30.2867,30.7532,22.58,41,4,3.98,ZA,1690103036
242,bulakamba,-6.8748,108.9559,28.47,65,63,1.8,ID,1690103036
243,paracuru,-3.41,-39.0306,23.95,80,73,5.17,BR,1690103037
244,dehri,24.8667,84.1833,38.01,38,72,7.31,IN,1690103038
245,selkirk,50.1436,-96.8845,19.04,66,96,2.21,CA,1690102454
246,torquay,50.4638,-3.5143,19.3,87,99,4.47,GB,1690103039
247,minas de marcona,-15.2119,-75.1103,11.41,92,35,3.94,PE,1690102572
248,yamba,-5.9,22.3,35.09,18,19,3.47,CD,1690103040
249,richards bay,-28.783,32.0377,23.08,42,14,1.42,ZA,1690102770
250,roma,43.2128,-75.4557,15.4,95,0,1.54,US,1690102402
251,puerto aysen,-45.4,-72.7,-0.15,98,70,1.06,CL,1690102572
252,ribeira brava,32.65,-17.0667,23.17,73,11,1.23,PT,1690102562
253,vernon,50.2581,-119.2691,20.74,56,26,0.51,CA,1690102802
254,pechora,65.1472,57.2244,23.32,42,92,3.62,RU,1690103046
255,kruisfontein,-34.0033,24.7314,14.38,59,29,6.03,ZA,1690102589
256,tezu,27.9167,96.1667,30.84,78,97,1.18,IN,1690102552
257,rabaul,-4.1967,152.1721,26.65,80,100,7.69,PG,1690102586
258,dudinka,69.4058,86.1778,22.2,59,47,5.26,RU,1690102541
259,troitsko-pechorsk,62.7084,56.1964,21.1,46,53,3.57,RU,1690103050
260,sosnogorsk,63.6023,53.8817,19.52,53,93,4.1,RU,1690103051
261,luchegorsk,46.4764,134.2569,21.48,98,100,1.78,RU,1690103051
262,ulladulla,-35.35,150.4667,11.04,80,4,2.88,AU,1690102563
263,baringo,0.4667,35.9667,30.35,32,42,1.63,KE,1690103053
264,sa'dah,16.9402,43.7639,33.62,10,16,4.83,YE,1690102936
265,serang,-6.1149,106.1502,28.76,66,37,2.86,ID,1690103054
266,mo i rana,66.3128,14.1428,12.96,93,75,1.79,NO,1690102994
267,nemuro,43.3236,145.575,16.37,92,82,5.25,JP,1690102516
268,mbanza kongo,-6.267,14.2401,27.05,51,22,2.15,AO,1690102564
269,ta`u,-14.2336,-169.5144,27.27,80,16,1.68,AS,1690102573
270,whistler,50.1164,-122.9695,11.66,77,90,0.46,CA,1690103058
271,nar'yan-mar,67.6713,53.087,18.74,81,100,1.27,RU,1690102520
272,tame,6.461,-71.73,21.3,92,93,1.66,CO,1690103060
273,bani walid,31.7566,13.9942,38.0,11,0,2.14,LY,1690103060
274,mutum,-19.8,-41.4383,19.0,79,100,0.47,BR,1690103061
275,lebu,-37.6167,-73.65,7.65,88,38,2.17,CL,1690102521
276,bardai,11.65,7.2333,26.34,68,24,3.96,NG,1690103062
277,springbok,-29.6643,17.8865,11.49,22,98,1.57,ZA,1690103063
278,north battleford,52.7834,-108.2847,15.05,94,0,1.54,CA,1690102831
279,kill devil hills,36.0307,-75.676,25.55,87,0,0.0,US,1690102572
280,tazacorte,28.629,-17.9293,23.54,85,40,8.23,ES,1690102539
281,papao,-17.75,-149.55,22.82,69,54,5.75,PF,1690103032
282,luang prabang,19.8856,102.1347,35.98,49,40,2.06,LA,1690103067
283,san juan,-31.5375,-68.5364,7.99,68,98,0.54,AR,1690102965
284,praia da vitoria,38.7333,-27.0667,22.09,94,75,4.04,PT,1690102513
285,portland,45.5234,-122.6762,20.99,72,0,3.09,US,1690102360
286,saldanha,-33.0117,17.9442,12.03,71,99,5.23,ZA,1690102596
287,severo-yeniseyskiy,60.3725,93.0408,23.08,55,84,0.46,RU,1690103070
288,lagos,6.5833,3.75,24.18,97,100,0.46,NG,1690102990
289,ocean shores,46.9737,-124.1563,14.41,95,0,0.89,US,1690103071
290,geraldton,-28.7667,114.6,19.23,59,0,5.66,AU,1690102577
291,sinabang,2.4803,96.3801,28.02,76,78,1.79,ID,1690102533
292,dolores,-36.3132,-57.6792,8.22,88,1,4.0,AR,1690103073
293,puerto deseado,-47.7503,-65.8938,-0.34,81,26,8.61,AR,1690102557
294,guiuan,11.0333,125.7247,29.01,77,100,11.23,PH,1690103074
295,golere,16.2557,-14.1017,29.19,62,100,4.83,SN,1690103075
296,city of isabela,6.7085,121.9711,30.03,78,100,2.01,PH,1690103075
297,pelhrimov,49.4313,15.2234,25.88,45,48,0.89,CZ,1690103076
298,tanda,26.55,82.65,37.35,41,95,5.98,IN,1690103036
299,la mana,-0.9333,-79.2167,23.13,89,80,0.5,EC,1690103077
300,padang,-0.9492,100.3543,26.03,81,50,2.15,ID,1690103005
301,chirilagua,13.2203,-88.1386,23.1,95,98,1.32,SV,1690103078
302,panguipulli,-39.6333,-72.3333,2.13,98,69,1.07,CL,1690102995
303,cananeia,-25.0147,-47.9267,16.19,92,9,1.0,BR,1690102839
304,mammoth lakes,37.6485,-118.9721,19.08,32,0,0.0,US,1690102887
305,salinopolis,-0.6136,-47.3561,24.56,85,11,3.55,BR,1690102520
306,greenville,35.6127,-77.3663,21.09,99,0,0.0,US,1690103081
307,salalah,17.0151,54.0924,27.05,89,100,4.63,OM,1690102562
308,vallenar,-28.5708,-70.7581,12.56,50,42,0.56,CL,1690102811
309,hovd,48.0056,91.6419,29.24,13,92,10.64,MN,1690103083
310,altamira,-3.2033,-52.2064,20.46,71,65,0.81,BR,1690102893
311,akureyri,65.6835,-18.0878,8.96,93,100,0.0,IS,1690102541
312,daye,30.0833,114.95,33.23,65,66,1.11,CN,1690103086
313,persembe,41.0656,37.7714,26.68,56,0,2.21,TR,1690103031
314,sirsa,29.5333,75.0167,39.13,34,97,5.72,IN,1690103087
315,xilin hot,43.9667,116.0333,24.03,40,8,6.36,CN,1690103088
316,kargil,34.5667,76.1,20.36,36,82,1.57,IN,1690102554
317,mili,6.0815,171.735,28.3,80,96,7.23,MH,1690103046
318,cannonvale,-20.2833,148.7,19.66,63,90,1.61,AU,1690102999
319,labytnangi,66.6572,66.4183,19.8,77,96,2.28,RU,1690103090
320,alice springs,-23.7,133.8833,12.75,33,0,7.2,AU,1690102278
321,kulhudhuffushi,6.6221,73.07,28.52,79,98,7.06,MV,1690103008
322,terrace,54.5163,-128.6035,11.95,93,20,2.06,CA,1690103034
323,el calafate,-50.3408,-72.2768,-5.37,73,2,2.05,AR,1690102997
324,san julian,21.0167,-102.1667,13.44,84,100,1.57,MX,1690103029
325,mount isa,-20.7333,139.5,14.87,33,0,8.23,AU,1690103038
326,bubaque,11.2833,-15.8333,27.26,79,100,4.12,GW,1690103094
327,duong dong,10.2167,103.9667,29.0,84,40,7.2,VN,1690103095
328,bima,-8.4667,118.7167,28.49,58,96,2.2,ID,1690103096
329,ola,59.5833,151.2833,15.08,97,100,1.41,RU,1690103096
330,cholpon-ata,42.6494,77.0823,26.03,50,31,0.63,KG,1690103097
331,boa vista,2.8197,-60.6733,23.99,94,75,1.03,BR,1690102535
332,cabo san lucas,22.8909,-109.9124,29.47,84,0,0.89,MX,1690102802
333,san borja,-14.8167,-66.85,19.68,78,0,0.68,BO,1690103100
334,masterton,-40.9597,175.6575,7.71,95,100,1.18,NZ,1690102538
335,okoneshnikovo,54.8377,75.0834,27.31,37,100,3.08,RU,1690103101
336,novyy urengoy,66.0833,76.6333,25.15,49,96,6.72,RU,1690103101
337,ceeldheer,3.8488,47.1806,29.9,50,33,11.72,SO,1690102532
338,monchegorsk,67.9397,32.8739,11.49,72,89,5.37,RU,1690103103
339,suva,-18.1416,178.4415,22.71,83,100,0.0,FJ,1690102934
340,sirte,31.2089,16.5887,31.75,47,0,2.32,LY,1690103104
341,lamu,-2.2717,40.902,27.12,73,87,6.84,KE,1690103105
342,ravar,31.2656,56.8055,35.22,10,1,2.13,IR,1690103106
343,ad dawadimi,24.5077,44.3924,40.64,6,13,4.4,SA,1690103107
344,port saint john's,-31.6229,29.5448,19.53,74,29,4.96,ZA,1690102569
345,usinsk,65.9939,57.5281,21.6,51,100,4.76,RU,1690103016
346,brisas de zicatela,15.8369,-97.0419,26.45,80,100,2.01,MX,1690102534
347,chui,-33.6971,-53.4616,14.44,83,78,7.28,UY,1690102594
348,tidjikja,18.5564,-11.4271,30.93,45,23,6.6,MR,1690102539
349,fort mcmurray,56.7268,-111.381,14.77,100,75,1.03,CA,1690102531
350,east end,34.5507,-92.341,22.09,95,0,2.01,US,1690103113
351,sabha,27.0377,14.4283,38.15,12,0,5.22,LY,1690102908
352,bagasra,21.4833,70.95,29.79,76,97,4.06,IN,1690103114
353,east london,-33.0153,27.9116,16.52,67,75,6.17,ZA,1690102528
354,puerto cabezas,14.0351,-83.3888,26.23,88,53,4.62,NI,1690103015
355,lazaro cardenas,17.9583,-102.2,25.71,89,100,2.59,MX,1690103006
356,walvis bay,-22.9575,14.5053,13.38,59,3,1.02,NA,1690102551
357,dryden,49.7833,-92.7503,16.16,88,0,3.09,CA,1690102544
358,burang,30.25,81.1667,14.97,63,100,3.52,CN,1690102523
359,saint-joseph,-21.3667,55.6167,23.21,78,23,6.49,RE,1690103059
360,yanchep,-31.55,115.6833,19.07,51,0,1.68,AU,1690103120
361,haiku-pauwela,20.9219,-156.3051,26.69,85,40,6.69,US,1690102547
362,holualoa,19.6228,-155.9522,24.91,84,40,3.6,US,1690102594
363,broome,42.2506,-75.833,15.93,88,0,0.83,US,1690103122
364,sandnessjoen,66.0217,12.6316,14.29,96,100,1.96,NO,1690103122
365,college,64.8569,-147.8028,19.97,79,20,1.54,US,1690102568
366,santo domingo de los colorados,-0.25,-79.15,20.34,94,85,1.06,EC,1690102972
367,acapetahua,15.2833,-92.7,25.44,79,100,1.62,MX,1690103124
368,cadale,2.7603,46.3222,27.7,62,38,8.97,SO,1690103014
369,plouzane,48.3833,-4.6167,17.18,97,100,5.14,FR,1690103125
370,mhasvad,17.6333,74.7833,23.66,87,100,10.76,IN,1690103127
371,huangnihe,43.5583,128.0239,24.6,79,67,5.23,CN,1690103122
372,antalaha,-14.9003,50.2788,25.87,61,55,4.55,MG,1690103128
373,semey,50.4111,80.2275,31.12,20,0,4.0,KZ,1690103129
374,nurota,40.5614,65.6886,37.43,12,0,7.1,UZ,1690103129
375,port-vila,-17.7338,168.3219,20.78,78,100,1.54,VU,1690103130
376,raton,36.9034,-104.4391,15.19,82,0,3.09,US,1690103130
377,keflavik,64.0049,-22.5624,12.24,82,75,1.54,IS,1690102490
378,stephenville,32.2207,-98.2023,23.07,70,0,0.0,US,1690103001
379,saint-pierre,-21.3393,55.4781,23.82,69,100,7.2,RE,1690103132
380,mossel bay,-34.1831,22.146,11.96,77,100,5.35,ZA,1690102991
381,mollendo,-17.0231,-72.0147,15.66,89,77,4.02,PE,1690103133
382,cabedelo,-6.9811,-34.8339,21.37,81,82,6.45,BR,1690103031
383,shevchenko,48.5,35.0,26.56,43,57,5.25,UA,1690103135
384,accra,5.556,-0.1969,25.23,88,20,2.57,GH,1690103136
385,ixtapa,20.7,-105.2,25.13,86,96,1.52,MX,1690103136
386,kuybyshev,55.4475,78.3218,25.61,46,0,3.47,RU,1690103137
387,abanilla,38.2054,-1.0415,30.86,71,45,1.43,ES,1690103138
388,moyo,3.6609,31.7247,29.22,38,24,1.95,UG,1690103138
389,yarkovo,57.4028,67.0786,18.12,87,100,3.3,RU,1690102589
390,barra de santo antonio,-9.4047,-35.5072,19.6,72,5,4.75,BR,1690103017
391,viedma,-40.8135,-62.9967,7.58,47,100,7.13,AR,1690102856
392,macon,39.8667,-88.9668,20.03,83,40,4.12,US,1690103126
393,chegdomyn,51.1167,133.0167,23.75,54,100,2.84,RU,1690103141
394,kitimat,54.0524,-128.6534,12.21,61,30,0.56,CA,1690103142
395,sayat,38.7839,63.8803,37.93,11,0,7.14,TM,1690103143
396,debark',13.1561,37.8981,16.33,64,93,2.1,ET,1690103143
397,panambi,-28.2925,-53.5017,18.14,71,100,6.22,BR,1690102933
398,hibbing,47.4272,-92.9377,15.64,100,0,0.0,US,1690103145
399,juan griego,11.0817,-63.9655,25.99,90,100,5.02,VE,1690103145
400,nagqu,31.5,92.0,16.82,41,100,4.45,CN,1690102556
401,jinchang,38.4953,102.1739,33.11,14,81,6.49,CN,1690103003
402,port-gentil,-0.7193,8.7815,24.98,83,75,5.14,GA,1690103025
403,auki,-8.7676,160.7034,25.07,90,75,1.58,SB,1690103148
404,saquarema,-22.92,-42.5103,18.38,92,2,4.47,BR,1690102967
405,funafuti,-8.5243,179.1942,29.0,84,40,0.0,TV,1690103149
406,muncar,-8.4333,114.3333,25.48,79,73,4.26,ID,1690103150
407,conception bay south,47.4999,-52.9981,18.91,96,97,2.71,CA,1690103151
408,englewood,39.6478,-104.9878,22.73,53,0,3.09,US,1690103151
409,happy valley-goose bay,53.3168,-60.3315,19.17,94,75,1.03,CA,1690103002
410,middelburg,-25.7751,29.4648,16.68,38,86,3.34,ZA,1690103153
411,sur,22.5667,59.5289,29.35,72,95,3.94,OM,1690103153
412,san lawrenz,36.0553,14.204,37.67,74,0,4.32,MT,1690103154
413,santa rosa,14.3122,121.1114,29.99,82,100,3.26,PH,1690103155
414,zarghun shahr,32.8473,68.4457,31.29,20,6,2.35,AF,1690103156
415,sao francisco,-15.9486,-44.8644,16.73,81,0,1.29,BR,1690103083
416,verkhniy baskunchak,48.2256,46.7217,32.06,26,46,1.27,RU,1690103157
417,yuzhno-kurilsk,44.0306,145.8556,16.23,93,84,4.43,RU,1690103157
418,bengkulu,-3.8004,102.2655,27.84,82,32,3.76,ID,1690102571
419,broken hill,-31.95,141.4333,10.29,64,84,7.01,AU,1690102953
420,lorengau,-2.0226,147.2712,27.64,77,23,3.06,PG,1690103159
421,muriae,-21.1306,-42.3664,16.91,88,51,0.95,BR,1690103001
422,dazhou,31.2159,107.5009,34.62,53,0,1.01,CN,1690103160
423,gaalkacyo,6.7697,47.4308,33.04,37,69,12.65,SO,1690102996
424,vozhega,60.4725,40.2213,17.88,71,96,4.67,RU,1690103162
425,moyynkum,44.2914,72.9469,39.32,12,0,3.7,KZ,1690103162
426,bam,29.106,58.357,37.38,9,100,9.71,IR,1690102918
427,dickinson,29.4608,-95.0513,26.97,80,0,1.54,US,1690103163
428,sejenane,37.0572,9.2381,30.53,28,0,1.74,TN,1690102585
429,cole harbour,44.6724,-63.4751,21.01,98,100,1.03,CA,1690103038
430,igarka,67.4667,86.5833,25.28,56,27,5.51,RU,1690103165
431,pahrump,36.2083,-115.9839,34.41,19,3,2.24,US,1690103034
432,olyokminsk,60.3736,120.4264,31.09,30,20,0.26,RU,1690103166
433,riberalta,-10.9833,-66.1,20.36,67,0,1.15,BO,1690103167
434,sao gabriel da cachoeira,-0.1303,-67.0892,22.08,97,92,0.96,BR,1690103034
435,paradsasvar,47.9126,19.9771,24.72,42,5,2.85,HU,1690103168
436,madimba,-10.4,40.3333,26.62,69,40,10.29,TZ,1690103169
437,gamboma,-1.8764,15.8644,31.55,42,87,2.19,CG,1690102939
438,bundibugyo,0.7414,30.0417,32.43,28,31,1.35,UG,1690103170
439,haifa,32.8156,34.9892,32.89,62,20,4.63,IL,1690103171
440,charlottetown,46.2352,-63.1267,22.1,96,100,3.6,CA,1690102580
441,horta,38.5333,-28.6333,21.8,87,40,1.54,PT,1690103172
442,st. john's,47.5649,-52.7093,19.04,97,100,1.54,CA,1690102504
443,barcelos,41.5388,-8.6151,19.4,61,100,1.7,PT,1690103174
444,al ghayzah,16.2079,52.176,31.27,63,55,4.79,YE,1690103174
445,thunder bay,48.4001,-89.3168,13.99,100,20,2.06,CA,1690103175
446,isabela,6.7085,121.9711,30.03,78,100,2.01,PH,1690103175
447,mil'kovo,55.6078,37.7956,20.22,72,98,3.54,RU,1690103176
448,nieuw amsterdam,5.8833,-55.0833,24.45,92,40,0.0,SR,1690103176
449,mournies,35.4764,24.0092,37.22,34,0,4.12,GR,1690103177
450,norderney,53.7,7.15,15.59,89,100,11.29,DE,1690103178
451,kugesi,56.029,47.2925,23.81,43,40,5.0,RU,1690103178
452,ust-nera,64.5667,143.2,19.36,51,100,2.32,RU,1690103179
453,susuman,62.7833,148.1667,9.51,94,100,0.64,RU,1690103180
454,umba,66.6871,34.3429,13.03,70,50,6.17,RU,1690103180
455,roleystone,-32.1167,116.0667,18.69,53,0,0.89,AU,1690103181
456,tinajo,29.0788,-13.7081,23.49,69,40,8.75,ES,1690103182
457,dolinsk,47.35,142.8,20.34,80,100,3.44,RU,1690103183
458,dubbo,-32.25,148.6167,10.07,66,22,5.66,AU,1690102958
459,bangjun,39.9911,117.2628,36.08,28,0,2.61,CN,1690103184
460,egilsstadir,65.2653,-14.3948,8.95,87,75,1.54,IS,1690103010
461,jackson,42.4165,-122.8345,23.93,56,0,2.06,US,1690103186
462,jiazi,22.8779,116.067,29.71,75,100,3.13,CN,1690103187
463,ponta delgada,37.7333,-25.6667,21.4,88,20,0.51,PT,1690103187
464,amga,60.8953,131.9608,25.76,61,65,2.37,RU,1690103188
465,manokwari,-0.8667,134.0833,27.25,79,63,1.39,ID,1690103189
466,ust'-kut,56.7938,105.7672,28.02,34,90,2.39,RU,1690103038
467,buka,40.8108,69.1986,41.21,11,6,2.74,UZ,1690103004
468,castillos,-34.1667,-53.8333,12.38,85,88,5.03,UY,1690103004
469,sassenberg,52.0,8.05,21.72,40,100,9.03,DE,1690103192
470,saint-philippe,-21.3585,55.7679,23.77,86,52,6.49,RE,1690103016
471,kolondieba,11.0882,-6.8926,25.27,81,97,2.46,ML,1690103193
472,coracora,-15.0333,-73.7833,10.23,39,0,2.86,PE,1690103193
473,yaren,-0.5472,166.916,28.92,73,5,4.82,NR,1690103065
474,mizdah,31.4451,12.9801,36.91,10,0,3.02,LY,1690103194
475,alta,69.9689,23.2717,12.59,75,100,4.47,NO,1690103031
476,tocopilla,-22.092,-70.1979,17.29,73,43,0.48,CL,1690102914
477,singkil,-7.9855,111.4161,27.73,59,10,3.52,ID,1690103196
478,kudahuvadhoo,2.6708,72.8944,28.55,72,81,2.86,MV,1690103197
479,dakhla,23.6848,-15.958,21.01,83,40,8.23,EH,1690103198
480,hansi,29.1,75.9667,36.91,41,100,5.38,IN,1690103199
481,acarau,-2.8856,-40.12,24.08,79,40,5.52,BR,1690102884
482,boguszow-gorce,50.7551,16.2049,21.79,45,100,6.01,PL,1690103200
483,basoko,1.2391,23.616,30.34,57,66,0.32,CD,1690103124
484,anna regina,7.2644,-58.5077,25.04,87,96,2.54,GY,1690103201
485,dobryanka,58.4619,56.4165,23.22,40,7,3.76,RU,1690103202
486,levanger,63.7464,11.2996,14.03,79,100,1.19,NO,1690103202
487,kremenets,50.0969,25.7246,20.63,51,4,4.07,UA,1690103203
488,onega,63.9061,38.1404,10.62,98,100,3.48,RU,1690103204
489,nabire,-3.3667,135.4833,26.84,83,61,2.07,ID,1690103204
490,asosa,10.0667,34.5333,22.43,66,99,1.33,ET,1690102941
491,poso,-1.3959,120.7524,27.62,81,50,0.67,ID,1690103205
492,yelizovo,53.1873,158.3805,18.73,85,90,3.89,RU,1690103206
493,kerbakhiar,40.1067,46.0383,23.87,61,0,3.08,AZ,1690103207
494,kerikeri,-35.2268,173.9474,7.17,89,37,2.21,NZ,1690103207
495,tianchang,37.9981,114.0156,35.66,34,1,6.55,CN,1690102943
496,bandarbeyla,9.4942,50.8122,31.62,49,99,13.9,SO,1690103210
497,martapura,-3.4167,114.85,31.05,62,40,2.57,ID,1690103211
498,enewetak,11.3474,162.3373,28.53,79,86,7.77,MH,1690103212
499,kati,12.7441,-8.0726,24.67,72,95,0.04,ML,1690103213
500,harper,4.375,-7.7169,25.11,83,100,3.79,LR,1690103213
501,morada nova,-5.1067,-38.3725,22.23,78,21,3.19,BR,1690103214
502,vylkove,45.4021,29.586,25.54,55,84,2.89,UA,1690103215
503,hamilton,39.1834,-84.5333,19.11,90,0,0.0,US,1690103216
504,paita,-5.0892,-81.1144,20.8,82,0,4.76,PE,1690103216
505,raja,8.4596,25.678,31.02,49,89,1.5,SS,1690103218
506,tuxtepec,18.1,-96.1167,24.18,93,95,1.25,MX,1690103219
507,at taj,24.2049,23.2857,37.21,13,82,3.23,LY,1690103220
508,kapuskasing,49.4169,-82.4331,12.86,92,37,2.38,CA,1690103220
509,dogondoutchi,13.6393,4.0287,27.73,66,100,5.3,NE,1690103016
510,clear lake,43.138,-93.3794,15.38,97,0,0.0,US,1690103222
511,bafq,31.6128,55.4107,40.57,8,0,5.95,IR,1690103224
512,la gi,10.6667,107.7833,27.66,83,77,5.54,VN,1690103225
513,shache,38.4167,77.2406,38.41,12,77,3.43,CN,1690103225
514,queenstown,-31.8976,26.8753,17.45,39,0,8.03,ZA,1690103226
515,long beach,33.767,-118.1892,21.29,92,0,2.06,US,1690103193
516,zakynthos,37.7914,20.8953,34.68,46,0,2.57,GR,1690103034
517,bonthe,7.5264,-12.505,26.2,82,98,3.04,SL,1690102995
518,penzance,50.1186,-5.5371,15.38,88,100,6.65,GB,1690102907
519,arkhangel'sk,64.5401,40.5433,15.01,98,100,1.04,RU,1690103230
520,saint george,37.1041,-113.5841,32.19,26,0,4.63,US,1690103127
521,kuanda,56.3161,116.0806,24.72,50,82,1.26,RU,1690103019
522,babayurt,43.6002,46.7789,37.5,23,0,5.0,RU,1690103232
523,tual,-5.6667,132.75,26.27,76,24,11.25,ID,1690103233
524,el bauga,18.262,33.9081,40.22,8,5,3.22,SD,1690103233
525,callao,-12.0667,-77.15,21.16,73,100,2.06,PE,1690102994
526,andergrove,-21.0833,149.1833,19.8,66,96,0.96,AU,1690103235
527,daromehar,24.7946,68.1805,33.47,59,100,2.95,PK,1690103236
528,waingapu,-9.6567,120.2641,26.16,67,99,7.43,ID,1690103236
529,uliastay,47.7417,96.8444,24.36,24,57,6.7,MN,1690103237
530,hadibu,12.65,54.0333,25.84,77,100,11.52,YE,1690103238
531,darwin,-12.4611,130.8418,26.99,24,0,5.14,AU,1690102987
532,hinton,53.4001,-117.5857,12.96,92,91,1.3,CA,1690103110
533,tangalle,6.024,80.7911,36.09,63,99,7.81,LK,1690103241
534,obolo-eke (1),6.8833,7.6333,23.83,94,100,1.21,NG,1690103242
535,canyon lake,29.8752,-98.2625,28.61,83,22,1.34,US,1690103243
536,roha,18.4333,73.1167,26.36,92,100,6.14,IN,1690103243
537,dzhangala,49.2167,50.3333,29.81,30,35,2.7,KZ,1690103244
538,balqash,46.8481,74.995,33.33,12,0,4.0,KZ,1690102982
539,black point,-34.6187,137.8972,11.8,81,99,4.55,AU,1690103245
540,laghouat,33.8,2.8651,35.18,7,0,2.77,DZ,1690103246
541,kutum,14.2,24.6667,30.15,34,71,1.65,SD,1690103246
542,faya-largeau,17.9257,19.1043,39.16,12,100,2.96,TD,1690103248
543,inebolu,41.9747,33.7608,28.62,43,0,2.55,TR,1690103248
544,sao raimundo nonato,-9.0153,-42.6994,20.1,75,1,3.14,BR,1690103249
545,odemira,37.598,-8.6397,19.53,49,0,2.79,PT,1690103250
546,douentza,14.9951,-2.9517,30.65,53,51,2.72,ML,1690103250
547,prince rupert,54.3161,-130.3201,14.83,91,20,8.75,CA,1690103019
548,makhambet,47.6667,51.5833,33.85,23,0,2.93,KZ,1690103252
549,srandakan,-7.9386,110.2506,26.14,68,48,7.26,ID,1690103253
550,naliya,23.2667,68.8333,27.84,81,100,0.29,IN,1690103253
551,cafayate,-26.073,-65.9761,14.56,37,43,1.15,AR,1690103254
552,fairless hills,40.1796,-74.8552,20.54,89,75,0.0,US,1690103254
553,new norfolk,-42.7826,147.0587,9.84,78,92,1.4,AU,1690103028
554,charters towers,-20.1,146.2667,20.03,35,84,7.17,AU,1690102990
555,blythe,33.6103,-114.5964,36.25,30,0,11.83,US,1690103256
556,idaho falls,43.4666,-112.0341,23.05,48,0,4.12,US,1690103257
557,moron,-34.6534,-58.6198,11.09,74,86,3.03,AR,1690103257
558,san andres,12.5847,-81.7006,29.01,84,20,4.63,CO,1690103258
559,axim,4.8699,-2.2405,25.31,83,100,3.36,GH,1690103259
560,tobol'sk,58.2,68.2667,19.47,83,94,3.39,RU,1690103259
561,black river,18.0264,-77.8487,25.43,86,10,1.55,JM,1690103260
562,murzuq,25.9155,13.9184,37.8,11,1,7.76,LY,1690102997
563,skeldon,5.8833,-57.1333,23.66,92,56,1.85,GY,1690103262
564,menaka,15.9182,2.4022,33.8,40,23,5.0,ML,1690103262
565,waterloo,43.4668,-80.5164,15.96,100,0,1.03,CA,1690102693
566,churapcha,62.0025,132.4325,26.24,56,63,2.46,RU,1690103264
567,tan-tan,28.438,-11.1032,21.96,76,89,7.59,MA,1690103264
568,pointe-noire,-4.7761,11.8635,24.09,76,67,2.82,CG,1690103265
569,chibougamau,49.9168,-74.3659,11.89,94,80,1.59,CA,1690103266
570,kralendijk,12.15,-68.2667,27.15,89,100,9.1,BQ,1690102985
571,port douglas,-16.4833,145.4667,21.71,70,38,0.21,AU,1690103267
572,alghero,40.5589,8.3181,31.05,42,20,3.6,IT,1690103268
573,kota belud,6.351,116.4305,28.77,70,81,2.46,MY,1690103268
574,guajara mirim,-10.7828,-65.3394,20.25,68,0,1.34,BR,1690103075
575,cuyo,10.8525,121.0086,28.34,80,100,6.67,PH,1690103270
576,cooper's town,26.8667,-77.5167,29.88,75,87,6.33,BS,1690103022
